$GPRMC,013044.00,A,4145.80902,N,11150.44761,W,0.049,,120115,,,D*6D
$GPVTG,,T,,M,0.049,N,0.090,K,D*22
$GPGGA,013044.00,4145.80902,N,11150.44761,W,2,11,1.26,1380.9,M,-18.5,M,,0000*5B
$GPGSA,A,3,16,23,20,32,03,51,07,09,06,27,10,,2.10,1.26,1.69*04
$GPGSV,4,1,15,03,39,192,33,06,06,284,19,07,30,258,33,08,45,049,38*79
$GPGSV,4,2,15,09,48,309,32,10,21,314,26,16,62,092,44,20,51,240,34*7A
$GPGSV,4,3,15,23,79,344,44,27,10,125,30,30,01,249,,31,04,065,*7F
$GPGSV,4,4,15,32,12,164,26,46,42,158,,51,42,173,36*42
$GPGLL,4145.80902,N,11150.44761,W,013044.00,A,D*7F
$GPRMC,013045.00,A,4145.80899,N,11150.44762,W,0.018,,120115,,,D*68
$GPVTG,,T,,M,0.018,N,0.034,K,D*28
$GPGGA,013045.00,4145.80899,N,11150.44762,W,2,11,1.26,1381.0,M,-18.5,M,,0000*52
$GPGSA,A,3,16,23,20,32,03,51,07,09,06,27,10,,2.10,1.26,1.69*04
$GPGSV,4,1,15,03,39,192,34,06,06,284,20,07,30,258,33,08,45,049,40*7B
$GPGSV,4,2,15,09,48,309,33,10,21,314,26,16,62,092,46,20,51,240,36*7B
$GPGSV,4,3,15,23,79,344,45,27,10,125,30,30,01,249,,31,04,065,*7E
$GPGSV,4,4,15,32,12,164,27,46,42,158,,51,42,173,36*43
$GPGLL,4145.80899,N,11150.44762,W,013045.00,A,D*7E
$GPRMC,013046.00,A,4145.80897,N,11150.44762,W,0.023,,120115,,,D*6D
$GPVTG,,T,,M,0.023,N,0.042,K,D*21
$GPGGA,013046.00,4145.80897,N,11150.44762,W,2,11,1.26,1381.0,M,-18.5,M,,0000*5F
$GPGSA,A,3,16,23,20,32,03,51,07,09,06,27,10,,2.10,1.26,1.69*04
$GPGSV,4,1,15,03,39,192,34,06,06,284,20,07,30,258,33,08,45,049,40*7B
$GPGSV,4,2,15,09,48,309,33,10,21,314,25,16,62,092,46,20,51,240,36*78
$GPGSV,4,3,15,23,79,344,45,27,10,125,30,30,01,249,,31,04,065,*7E
$GPGSV,4,4,15,32,12,164,26,46,42,158,,51,42,173,36*42
$GPGLL,4145.80897,N,11150.44762,W,013046.00,A,D*73
$GPRMC,013047.00,A,4145.80897,N,11150.44764,W,0.009,,120115,,,D*62
$GPVTG,,T,,M,0.009,N,0.016,K,D*28
$GPGGA,013047.00,4145.80897,N,11150.44764,W,2,10,1.26,1381.0,M,-18.5,M,,0000*59
$GPGSA,A,3,16,23,20,32,03,51,07,09,27,10,,,2.10,1.26,1.69*02
$GPGSV,4,1,15,03,39,192,34,06,06,284,21,07,30,258,33,08,45,049,40*7A
$GPGSV,4,2,15,09,48,309,33,10,21,314,25,16,62,092,46,20,51,240,36*78
$GPGSV,4,3,15,23,79,344,45,27,10,125,30,30,01,249,,31,04,065,*7E
$GPGSV,4,4,15,32,12,164,26,46,42,158,,51,42,173,36*42
$GPGLL,4145.80897,N,11150.44764,W,013047.00,A,D*74
$GPRMC,013048.00,A,4145.80895,N,11150.44767,W,0.019,,120115,,,D*6D
$GPVTG,,T,,M,0.019,N,0.036,K,D*2B
$GPGGA,013048.00,4145.80895,N,11150.44767,W,2,10,1.26,1381.1,M,-18.5,M,,0000*56
$GPGSA,A,3,16,23,20,32,03,51,07,09,06,27,,,2.11,1.26,1.69*04
$GPGSV,4,1,15,03,39,192,34,06,06,284,21,07,30,258,33,08,45,049,40*7A
$GPGSV,4,2,15,09,48,309,33,10,21,314,25,16,62,092,46,20,51,240,36*78
$GPGSV,4,3,15,23,79,344,45,27,10,125,30,30,01,249,,31,04,065,*7E
$GPGSV,4,4,15,32,12,164,26,46,42,158,,51,42,173,36*42
$GPGLL,4145.80895,N,11150.44767,W,013048.00,A,D*7A
$GPRMC,013049.00,A,4145.80891,N,11150.44771,W,0.006,,120115,,,D*61
$GPVTG,,T,,M,0.006,N,0.012,K,D*23
$GPGGA,013049.00,4145.80891,N,11150.44771,W,2,11,1.26,1381.1,M,-18.5,M,,0000*55
$GPGSA,A,3,16,23,20,32,03,51,07,09,06,27,10,,2.11,1.26,1.69*05
$GPGSV,4,1,15,03,39,192,36,06,06,284,22,07,30,258,35,08,45,049,42*7F
$GPGSV,4,2,15,09,48,309,35,10,21,314,25,16,62,092,48,20,51,240,38*7E
$GPGSV,4,3,15,23,79,344,47,27,10,125,30,30,01,249,,31,04,065,*7C
$GPGSV,4,4,15,32,12,164,27,46,42,158,,51,42,173,38*4D
$GPGLL,4145.80891,N,11150.44771,W,013049.00,A,D*78
$GPRMC,013050.00,A,4145.80890,N,11150.44771,W,0.052,,120115,,,D*69
$GPVTG,,T,,M,0.052,N,0.096,K,D*2E
$GPGGA,013050.00,4145.80890,N,11150.44771,W,2,11,1.26,1381.0,M,-18.5,M,,0000*5D
$GPGSA,A,3,16,23,20,32,03,51,07,09,06,27,10,,2.11,1.26,1.69*05
$GPGSV,4,1,15,03,39,192,35,06,06,284,23,07,30,258,34,08,45,049,42*7C
$GPGSV,4,2,15,09,48,309,34,10,21,314,25,16,62,090,47,20,51,240,37*7D
$GPGSV,4,3,15,23,79,344,46,27,10,125,30,30,01,249,,31,04,065,*7D
$GPGSV,4,4,15,32,12,164,27,46,42,158,,51,42,173,37*42
$GPGLL,4145.80890,N,11150.44771,W,013050.00,A,D*71
$GPRMC,013051.00,A,4145.80889,N,11150.44770,W,0.028,,120115,,,D*6C
$GPVTG,,T,,M,0.028,N,0.052,K,D*2B
$GPGGA,013051.00,4145.80889,N,11150.44770,W,2,11,1.26,1380.9,M,-18.5,M,,0000*5D
$GPGSA,A,3,16,23,20,32,03,51,07,09,06,27,10,,2.11,1.26,1.69*05
$GPGSV,4,1,15,03,39,192,35,06,06,284,23,07,30,258,34,08,45,049,41*7F
$GPGSV,4,2,15,09,48,309,33,10,21,314,25,16,62,090,46,20,51,240,37*7B
$GPGSV,4,3,15,23,79,344,45,27,10,125,30,30,01,249,,31,04,065,*7E
$GPGSV,4,4,15,32,12,164,27,46,42,158,,51,42,173,37*42
$GPGLL,4145.80889,N,11150.44770,W,013051.00,A,D*79
$GPRMC,013052.00,A,4145.80888,N,11150.44768,W,0.037,,120115,,,D*69
$GPVTG,,T,,M,0.037,N,0.069,K,D*2D
$GPGGA,013052.00,4145.80888,N,11150.44768,W,2,11,1.26,1380.9,M,-18.5,M,,0000*56
$GPGSA,A,3,16,23,20,32,03,51,07,09,06,27,10,,2.11,1.26,1.69*05
$GPGSV,4,1,15,03,39,192,35,06,06,284,23,07,30,258,34,08,45,049,41*7F
$GPGSV,4,2,15,09,48,309,33,10,21,314,26,16,62,090,46,20,51,240,36*79
$GPGSV,4,3,15,23,79,344,46,27,10,125,30,30,01,249,,31,04,065,*7D
$GPGSV,4,4,15,32,12,164,27,46,42,158,,51,42,173,37*42
$GPGLL,4145.80888,N,11150.44768,W,013052.00,A,D*72